[
  {
    "stationId": "T01BUJ",
    "name": "Bukit Jalil",
    "transportTypeId": "T01",
    "transportType": "LRT",
    "lineId": "LRTSP",
    "lineName": "sri petaling line",
    "geolocation": "3.058224780067562, 101.69212393456067",
    "latitute": 3.05822478,
    "longitude": 101.6921239,
    "address": "Bukit Jalil, 57000 Kuala Lumpur, Federal Territory of Kuala Lumpur, Malaysia",
    "postCode": 57000,
    "geofenceRadiusM": 150
  },
  {
    "stationId": "T01SUB",
    "name": "Sungai Besi",
    "transportTypeId": "T01",
    "transportType": "LRT",
    "lineId": "LRTSP",
    "lineName": "sri petaling line",
    "geolocation": "3.0639501839874126, 101.70800850948797",
    "latitute": 3.063950184,
    "longitude": 101.7080085,
    "address": "57000 Kuala Lumpur, Federal Territory of Kuala Lumpur, Malaysia",
    "postCode": 57000,
    "geofenceRadiusM": 150
  },
  {
    "stationId": "T01BTS",
    "name": "Bandar Tasik Selatan",
    "transportTypeId": "T01",
    "transportType": "LRT",
    "lineId": "LRTSP",
    "lineName": "sri petaling line",
    "geolocation": "3.076256906874474, 101.71111918457233",
    "latitute": 3.076256907,
    "longitude": 101.7111192,
    "address": "Bandar Tasek Selatan, 57100 Kuala Lumpur, Federal Territory of Kuala Lumpur, Malaysia",
    "postCode": 57100,
    "geofenceRadiusM": 150
  },
  {
    "stationId": "T01BTR",
    "name": "Bandar Tun Razak",
    "transportTypeId": "T01",
    "transportType": "LRT",
    "lineId": "LRTSP",
    "lineName": "sri petaling line",
    "geolocation": "3.0896669081243777, 101.71243620694341",
    "latitute": 3.089666908,
    "longitude": 101.7124362,
    "address": "98, Persiaran Ikhlas, Bandar Tun Razak, 56000 Kuala Lumpur, Wilayah Persekutuan Kuala Lumpur, Malaysia",
    "postCode": 56000,
    "geofenceRadiusM": 150
  },
  {
    "stationId": "T01SAS",
    "name": "Salak Selatan",
    "transportTypeId": "T01",
    "transportType": "LRT",
    "lineId": "LRTSP",
    "lineName": "sri petaling line",
    "geolocation": "3.102121177637669, 101.70635319949714",
    "latitute": 3.102121178,
    "longitude": 101.7063532,
    "address": "Salak South, 57100 Kuala Lumpur, Federal Territory of Kuala Lumpur, Malaysia",
    "postCode": 57100,
    "geofenceRadiusM": 150
  },
  {
    "stationId": "T01CRS",
    "name": "Cheras",
    "transportTypeId": "T01",
    "transportType": "LRT",
    "lineId": "LRTSP",
    "lineName": "sri petaling line",
    "geolocation": "3.1126912300339247, 101.71427434348229",
    "latitute": 3.11269123,
    "longitude": 101.7142743,
    "address": "Taman Ikan Emas, 57100 Kuala Lumpur, Federal Territory of Kuala Lumpur, Malaysia",
    "postCode": 57100,
    "geofenceRadiusM": 150
  },
  {
    "stationId": "T01CSL",
    "name": "Chan Sow Lin",
    "transportTypeId": "T01",
    "transportType": "LRT",
    "lineId": "LRTSP",
    "lineName": "sri petaling line",
    "geolocation": "3.127856611454085, 101.71559048828826",
    "latitute": 3.127856611,
    "longitude": 101.7155905,
    "address": "Fraser Business Park, 55200 Kuala Lumpur, Federal Territory of Kuala Lumpur, Malaysia",
    "postCode": 55200,
    "geofenceRadiusM": 150
  },
  {
    "stationId": "T01PDU",
    "name": "Pudu",
    "transportTypeId": "T01",
    "transportType": "LRT",
    "lineId": "LRTSP",
    "lineName": "sri petaling line",
    "geolocation": "3.134906706777791, 101.71196856589688",
    "latitute": 3.134906707,
    "longitude": 101.7119686,
    "address": "Pudu, 55200 Kuala Lumpur, Federal Territory of Kuala Lumpur, Malaysia",
    "postCode": 55200,
    "geofenceRadiusM": 150
  },
  {
    "stationId": "T01HTU",
    "name": "Hang Tuah",
    "transportTypeId": "T01",
    "transportType": "LRT",
    "lineId": "LRTSP",
    "lineName": "sri petaling line",
    "geolocation": "3.1397892400999337, 101.70630237152396",
    "latitute": 3.13978924,
    "longitude": 101.7063024,
    "address": "Pudu, 55200 Kuala Lumpur, Federal Territory of Kuala Lumpur, Malaysia",
    "postCode": 55200,
    "geofenceRadiusM": 150
  },
  {
    "stationId": "T01PRY",
    "name": "Plaza Rakyat",
    "transportTypeId": "T01",
    "transportType": "LRT",
    "lineId": "LRTSP",
    "lineName": "sri petaling line",
    "geolocation": "3.144068346392798, 101.70211907023969",
    "latitute": 3.144068346,
    "longitude": 101.7021191,
    "address": "Kuala Lumpur City Centre, 50150 Kuala Lumpur, Federal Territory of Kuala Lumpur, Malaysia",
    "postCode": 50150,
    "geofenceRadiusM": 150
  },
  {
    "stationId": "T01MJK",
    "name": "Masjid Jamek",
    "transportTypeId": "T01",
    "transportType": "LRT",
    "lineId": "LRTSP",
    "lineName": "sri petaling line",
    "geolocation": "3.1494442713304966, 101.69642690501877",
    "latitute": 3.149444271,
    "longitude": 101.6964269,
    "address": "Kuala Lumpur City Centre, 50100 Kuala Lumpur, Federal Territory of Kuala Lumpur, Malaysia",
    "postCode": 50100,
    "geofenceRadiusM": 150
  },
  {
    "stationId": "T02HTU",
    "name": "Hang Tuah",
    "transportTypeId": "T02",
    "transportType": "Monorail",
    "lineId": "KLMRL",
    "lineName": "kl monorail",
    "geolocation": "3.1407704457955896, 101.7061301736382",
    "latitute": 3.140770446,
    "longitude": 101.7061302,
    "address": "Pudu, Kuala Lumpur, Federal Territory of Kuala Lumpur, Malaysia",
    "postCode": 55200,
    "geofenceRadiusM": 150
  },
  {
    "stationId": "T02IMB",
    "name": "Imbi",
    "transportTypeId": "T02",
    "transportType": "Monorail",
    "lineId": "KLMRL",
    "lineName": "kl monorail",
    "geolocation": "3.1428374783531514, 101.70945126830492",
    "latitute": 3.142837478,
    "longitude": 101.7094513,
    "address": "Monorail Station Bukit Bintang, Jln Imbi, Imbi, 55100 Kuala Lumpur, Wilayah Persekutuan Kuala Lumpur, Malaysia",
    "postCode": 55100,
    "geofenceRadiusM": 150
  },
  {
    "stationId": "T02BBN",
    "name": "Bukit Bintang",
    "transportTypeId": "T02",
    "transportType": "Monorail",
    "lineId": "KLMRL",
    "lineName": "kl monorail",
    "geolocation": "3.1460343844401706, 101.71150201518927",
    "latitute": 3.146034384,
    "longitude": 101.711502,
    "address": "Bukit Bintang, 55100 Kuala Lumpur, Federal Territory of Kuala Lumpur, Malaysia",
    "postCode": 55100,
    "geofenceRadiusM": 150
  },
  {
    "stationId": "T02RCL",
    "name": "Raja Chulan",
    "transportTypeId": "T02",
    "transportType": "Monorail",
    "lineId": "KLMRL",
    "lineName": "kl monorail",
    "geolocation": "3.150855376850621, 101.71045095388098",
    "latitute": 3.150855377,
    "longitude": 101.710451,
    "address": "Kuala Lumpur, 50450 Kuala Lumpur, Federal Territory of Kuala Lumpur, Malaysia",
    "postCode": 50450,
    "geofenceRadiusM": 150
  }
]